<?xml version='1.0' encoding='UTF-8' standalone='yes' ?><Route><Point><Title>Krenite na sjeveroistok s mjesta Ul. Krste Odaka </Title><Lat>45.7932675</Lat><Lng>15.9078045</Lng><Description>39 m</Description></Point><Point><Title>Skrenite lijevo i nastavite po Ul. Krste Odaka </Title><Lat>45.7933414</Lat><Lng>15.9075619</Lng><Description>21 m</Description></Point><Point><Title>Skrenite desno i nastavite po Ul. Krste Odaka </Title><Lat>45.7943750</Lat><Lng>15.9082394</Lng><Description>0,1 km</Description></Point><Point><Title>Skrenite udesno u Vrbje ul. </Title><Lat>45.7924928</Lat><Lng>15.9083177</Lng><Description>0,2 km</Description></Point><Point><Title>Skrenite lijevo i nastavite po Vrbje ul. </Title><Lat>45.7923661</Lat><Lng>15.9084557</Lng><Description>18 m</Description></Point><Point><Title>Skrenite blago ulijevo u Horvaćanska cesta </Title><Lat>45.7918694</Lat><Lng>15.9135741</Lng><Description>0,4 km</Description></Point><Point><Title>Idite na prijelaz za pješake </Title><Lat>45.7881004</Lat><Lng>15.9451886</Lng><Description>2,6 km</Description></Point><Point><Title>Skrenite udesno u Selska cesta </Title><Lat>45.7865363</Lat><Lng>15.9519245</Lng><Description>0,6 km</Description></Point><Point><Title>Skrenite udesno u Jadranski most </Title><Lat>45.7789476</Lat><Lng>15.9530048</Lng><Description>0,9 km</Description></Point><Point><Title>Nastavite po Remetinečka cesta  Prođite 1 kružni tok   </Title><Lat>45.7729546</Lat><Lng>15.9523638</Lng><Description>0,7 km</Description></Point><Point><Title>Skrenite blago ulijevo i nastavite po Remetinečka cesta </Title><Lat>45.7712490</Lat><Lng>15.9507454</Lng><Description>0,2 km</Description></Point><Point><Title>Skrenite ulijevo u Savski gaj put XIII </Title><Lat>45.7686193</Lat><Lng>15.9533523</Lng><Description>0,4 km</Description></Point><Point><Title>Nastavite po Utinjska ul. </Title><Lat>45.7648907</Lat><Lng>15.9648251</Lng><Description>1,1 km</Description></Point><Point><Title>Skrenite udesno u Svetoklarska ul. </Title><Lat>45.7587625</Lat><Lng>15.9729636</Lng><Description>0,9 km</Description></Point><Point><Title>Skrenite blago udesno u Mrkšina ul. </Title><Lat>45.7572353</Lat><Lng>15.9751142</Lng><Description>0,2 km</Description></Point><Point><Title>Skrenite lijevo i nastavite po Mrkšina ul. </Title><Lat>45.7583610</Lat><Lng>15.9776540</Lng><Description>0,2 km</Description></Point><Point><Title>Nastavite po Horvatova ul. </Title><Lat>45.7584633</Lat><Lng>15.9779590</Lng><Description>26 m</Description></Point><Point><Title>Skrenite desno i nastavite po Horvatova ul. </Title><Lat>45.7477189</Lat><Lng>15.9925907</Lng><Description>1,7 km</Description></Point><Point><Title>Skrenite ulijevo u Mladosti ul. </Title><Lat>45.7478507</Lat><Lng>15.9927636</Lng><Description>20 m</Description></Point><Point><Title>Skrenite udesno u D30 </Title><Lat>45.7210703</Lat><Lng>16.0538896</Lng><Description>5,7 km</Description></Point><Point><Title>Držite se lijeve strane da biste nastavili po Zagrebačka ul. </Title><Lat>45.7141064</Lat><Lng>16.0749466</Lng><Description>1,8 km</Description></Point><Point><Title>Nastavite po Trg kralja Tomislava </Title><Lat>45.7112085</Lat><Lng>16.0800503</Lng><Description>0,5 km</Description></Point><Point><Title>Nastavite po Sisačka ul. </Title><Lat>45.7041016</Lat><Lng>16.0911221</Lng><Description>1,2 km</Description></Point><Point><Title>Nastavite po D30 </Title><Lat>45.6245269</Lat><Lng>16.1232618</Lng><Description>9,9 km</Description></Point><Point><Title>Skrenite blago udesno u Zagrebačka ul. </Title><Lat>45.6192453</Lat><Lng>16.1365958</Lng><Description>1,3 km</Description></Point><Point><Title>Nastavite po D30 </Title><Lat>45.6030452</Lat><Lng>16.1653807</Lng><Description>3,1 km</Description></Point><Point><Title>Skrenite blago udesno u Zagrebačka ul. </Title><Lat>45.5682336</Lat><Lng>16.2267034</Lng><Description>6,4 km</Description></Point><Point><Title>Nastavite po D30 </Title><Lat>45.5135530</Lat><Lng>16.2506442</Lng><Description>6,6 km</Description></Point><Point><Title>Skrenite desno prema Petrinjska ul. </Title><Lat>45.5013757</Lat><Lng>16.2413162</Lng><Description>1,6 km</Description></Point><Point><Title>Nastavite po Petrinjska ul. </Title><Lat>45.4628394</Lat><Lng>16.2530876</Lng><Description>4,9 km</Description></Point><Point><Title>Skrenite blago udesno u D30 </Title><Lat>45.4397775</Lat><Lng>16.2685199</Lng><Description>3,1 km</Description></Point><Point><Title>Skrenite ulijevo u Ul. Matije Gupca </Title><Lat>45.4411189</Lat><Lng>16.2728365</Lng><Description>0,4 km</Description></Point><Point><Title>Skrenite udesno u Šetalište K. Knežića </Title><Lat>45.4382838</Lat><Lng>16.2732583</Lng><Description>0,3 km</Description></Point><Point><Title>Nastavite stazom </Title><Lat>45.4364223</Lat><Lng>16.2757179</Lng><Description>0,3 km</Description></Point><Point><Title>Nastavite po Ul. Franje Jelačića </Title><Lat>45.4343798</Lat><Lng>16.2767315</Lng><Description>0,3 km</Description></Point><Point><Title>Skrenite ulijevo u Ul. Katarine Zrinske </Title><Lat>45.4340760</Lat><Lng>16.2773369</Lng><Description>58 m</Description></Point><Point><Title>Skrenite lijevo i nastavite po Ul. Katarine Zrinske </Title><Lat>45.4341044</Lat><Lng>16.2775173</Lng><Description>14 m</Description></Point><Point><Title>Skrenite udesno u Ul. Stjepana Radića </Title><Lat>45.4128930</Lat><Lng>16.2958480</Lng><Description>2,8 km</Description></Point><Point><Title>Nastavite po D30 </Title><Lat>45.2292102</Lat><Lng>16.5358814</Lng><Description>29,6 km</Description></Point><Point><Title>Nastavite po Ul. Gorana Lederera </Title><Lat>45.2278033</Lat><Lng>16.5385150</Lng><Description>0,3 km</Description></Point><Point><Title>Nastavite po Ul. Vladimira Nazora </Title><Lat>45.2261998</Lat><Lng>16.5439094</Lng><Description>0,5 km</Description></Point><Point><Title>Nastavite po D47 </Title><Lat>45.2224615</Lat><Lng>16.5490031</Lng><Description>0,6 km</Description></Point><Point><Title>Skrenite desno prema R475  Granica Bosna i Hercegovina   </Title><Lat>45.2198124</Lat><Lng>16.5468532</Lng><Description>0,3 km</Description></Point><Point><Title>Nastavite ravno </Title><Lat>45.2182487</Lat><Lng>16.5468022</Lng><Description>0,2 km</Description></Point><Point><Title>Skrenite udesno u R475 </Title><Lat>45.2181737</Lat><Lng>16.5467670</Lng><Description>9 m</Description></Point><Point><Title>Skrenite lijevo i nastavite po R475 </Title><Lat>45.1972320</Lat><Lng>16.5674122</Lng><Description>3,2 km</Description></Point><Point><Title>Skrenite desno prema R475 </Title><Lat>45.1730856</Lat><Lng>16.5965914</Lng><Description>4,2 km</Description></Point><Point><Title>Skrenite udesno u R475 </Title><Lat>45.1421811</Lat><Lng>16.5998376</Lng><Description>4,2 km</Description></Point><Point><Title>Skrenite blago ulijevo prema M15 </Title><Lat>45.1033609</Lat><Lng>16.6770058</Lng><Description>9,0 km</Description></Point><Point><Title>Skrenite udesno u M15 </Title><Lat>44.9969147</Lat><Lng>16.7317751</Lng><Description>15,0 km</Description></Point><Point><Title>Skrenite ulijevo u Аеродромска </Title><Lat>44.9951584</Lat><Lng>16.7447433</Lng><Description>1,1 km</Description></Point><Point><Title>Skrenite desno </Title><Lat>44.9904669</Lat><Lng>16.7443097</Lng><Description>0,5 km</Description></Point><Point><Title>Skrenite oštro lijevo na Kozarska </Title><Lat>44.9859418</Lat><Lng>16.7749797</Lng><Description>2,8 km</Description></Point><Point><Title>Skrenite ulijevo u M4 </Title><Lat>44.8229082</Lat><Lng>17.1943296</Lng><Description>41,8 km</Description></Point><Point><Title>Skrenite udesno u Subotička </Title><Lat>44.8109234</Lat><Lng>17.1966328</Lng><Description>1,5 km</Description></Point><Point><Title>Skrenite lijevo prema E661 </Title><Lat>44.8105212</Lat><Lng>17.1985991</Lng><Description>0,2 km</Description></Point><Point><Title>Skrenite udesno u E661 </Title><Lat>44.7912795</Lat><Lng>17.1992083</Lng><Description>2,2 km</Description></Point><Point><Title>Skrenite ulijevo u Ивана Горана Ковачића </Title><Lat>44.7873776</Lat><Lng>17.2056985</Lng><Description>0,7 km</Description></Point><Point><Title>Nastavite po Браће Пиштељића </Title><Lat>44.7837531</Lat><Lng>17.2158574</Lng><Description>0,9 km</Description></Point><Point><Title>Nastavite po Braće Pišteljića </Title><Lat>44.7833561</Lat><Lng>17.2243787</Lng><Description>0,8 km</Description></Point><Point><Title>Skrenite desno prema Петра Велика </Title><Lat>44.7815348</Lat><Lng>17.2266506</Lng><Description>0,3 km</Description></Point><Point><Title>Skrenite udesno u Петра Велика </Title><Lat>44.7761459</Lat><Lng>17.2245815</Lng><Description>0,6 km</Description></Point><Point><Title>Skrenite ulijevo u Владислава Шкарића </Title><Lat>44.7661580</Lat><Lng>17.2447206</Lng><Description>2,1 km</Description></Point><Point><Title>Nastavite po Раде Радића </Title><Lat>44.7389754</Lat><Lng>17.2820942</Lng><Description>4,7 km</Description></Point><Point><Title>Nastavite po M4 </Title><Lat>44.7240613</Lat><Lng>17.3016392</Lng><Description>2,7 km</Description></Point><Point><Title>Skrenite blago udesno prema Savčić Nedeljka </Title><Lat>44.7275782</Lat><Lng>17.3051214</Lng><Description>0,6 km</Description></Point><Point><Title>Nastavite po Savčić Nedeljka </Title><Lat>44.7264369</Lat><Lng>17.3143397</Lng><Description>0,8 km</Description></Point><Point><Title>Skrenite lijevo kod Zdravka Čelara </Title><Lat>44.7278406</Lat><Lng>17.3158926</Lng><Description>0,2 km</Description></Point><Point><Title>Skrenite udesno u Petra I Karađorđevića </Title><Lat>44.7234004</Lat><Lng>17.3247326</Lng><Description>0,9 km</Description></Point><Point><Title>Nastavite po Miloša Dujića </Title><Lat>44.7121434</Lat><Lng>17.3328650</Lng><Description>1,6 km</Description></Point><Point><Title>Nastavite po M4 </Title><Lat>44.6967986</Lat><Lng>17.3316383</Lng><Description>2,0 km</Description></Point><Point><Title>Skrenite desno </Title><Lat>44.6544807</Lat><Lng>17.3457898</Lng><Description>6,1 km</Description></Point><Point><Title>Skrenite lijevo prema M4 </Title><Lat>44.6552225</Lat><Lng>17.3568998</Lng><Description>0,9 km</Description></Point><Point><Title>Skrenite udesno u M4 </Title><Lat>44.5588940</Lat><Lng>17.4807075</Lng><Description>17,4 km</Description></Point><Point><Title>Skrenite udesno u R440 </Title><Lat>44.4418020</Lat><Lng>17.6007822</Lng><Description>22,0 km</Description></Point><Point><Title>Skrenite lijevo </Title><Lat>44.4090499</Lat><Lng>17.6918754</Lng><Description>10,3 km</Description></Point><Point><Title>Skrenite lijevo </Title><Lat>44.4021319</Lat><Lng>17.7156572</Lng><Description>2,5 km</Description></Point><Point><Title>Skrenite blago ulijevo </Title><Lat>44.4080058</Lat><Lng>17.7211093</Lng><Description>0,9 km</Description></Point><Point><Title>Skrenite oštro desno </Title><Lat>44.3951110</Lat><Lng>17.7438201</Lng><Description>2,8 km</Description></Point><Point><Title>Skrenite desno </Title><Lat>44.3361645</Lat><Lng>17.7977904</Lng><Description>8,7 km</Description></Point><Point><Title>Skrenite lijevo </Title><Lat>44.2429437</Lat><Lng>17.8787623</Lng><Description>16,2 km</Description></Point><Point><Title>Skrenite lijevo </Title><Lat>44.2390766</Lat><Lng>17.8841543</Lng><Description>1,2 km</Description></Point><Point><Title>Skrenite desno prema Envera Čerkeza </Title><Lat>44.2356479</Lat><Lng>17.8813788</Lng><Description>0,6 km</Description></Point><Point><Title>Skrenite ulijevo u Envera Čerkeza </Title><Lat>44.2306664</Lat><Lng>17.8887007</Lng><Description>0,9 km</Description></Point><Point><Title>Nastavite po Tetovska </Title><Lat>44.2215319</Lat><Lng>17.8929868</Lng><Description>1,1 km</Description></Point><Point><Title>Nastavite po ZAVNOBIH-a/R445  Nastavite slijediti R445   </Title><Lat>44.2015190</Lat><Lng>17.9025735</Lng><Description>2,6 km</Description></Point><Point><Title>Skrenite ulijevo u R441 </Title><Lat>44.2024096</Lat><Lng>17.9033071</Lng><Description>0,1 km</Description></Point><Point><Title>Nastavite po Školska </Title><Lat>44.2033200</Lat><Lng>17.9070953</Lng><Description>0,3 km</Description></Point><Point><Title>Skrenite blago ulijevo i nastavite po Školska </Title><Lat>44.2034995</Lat><Lng>17.9075955</Lng><Description>45 m</Description></Point><Point><Title>Skrenite blago ulijevo u Bulevar Kulina bana </Title><Lat>44.2076077</Lat><Lng>17.9115558</Lng><Description>0,6 km</Description></Point><Point><Title>Skrenite blago ulijevo u Bulevar Kralja Tvrtka I </Title><Lat>44.2077675</Lat><Lng>17.9117356</Lng><Description>292 km</Description></Point></Route>